,2021 Rank,City,State,2021 Estimate,2020 Census,Change,2020 Land Area in Square Miles,2020 Land Area in Square Kilometers,2020 Population Density in Per Square Mile,2020 Population Density in Per Square Kilometer,Location,Latitude (North),Longitude (West),State Superintendent,Number of students,Number of teachers,Teacher/pupil ratio,Number of districts,Number of schools,Graduation rate,Per-pupil spending
0,1,New York,New York,8467513,8804190,-0.03976102546284842,300.5,778.3,29298.0,11312.0,40°39′N 73°55′W / 40.66°N 73.93°W,40.66,73.93,Betty A. Rosa,2488476,205293,1:12,686,4360,83.0,"$25,519"
1,78,Buffalo,New York,276807,278349,-0.005570668371825857,40.4,104.6,6890.0,2660.0,42°53′N 78°51′W﻿ / ﻿42.89°N 78.85°W,42.89,78.85,Betty A. Rosa,2488476,205293,1:12,686,4360,83.0,"$25,519"
2,111,Rochester,New York,210606,211328,-0.003428202425381993,35.8,92.7,5903.0,2279.0,43°10′N 77°37′W﻿ / ﻿43.16°N 77.61°W,43.16,77.61,Betty A. Rosa,2488476,205293,1:12,686,4360,83.0,"$25,519"
3,112,Yonkers,New York,209530,211569,-0.009731303393308834,18.0,46.6,11754.0,4538.0,40°56′N 73°52′W﻿ / ﻿40.94°N 73.86°W,40.94,73.86,Betty A. Rosa,2488476,205293,1:12,686,4360,83.0,"$25,519"
4,188,Syracuse,New York,146103,148620,-0.017227572329110284,25.1,65.0,5921.0,2286.0,43°02′N 76°08′W﻿ / ﻿43.04°N 76.14°W,43.04,76.14,Betty A. Rosa,2488476,205293,1:12,686,4360,83.0,"$25,519"
5,2,Los Angeles,California,3849297,3898747,-0.012846501581977176,469.5,1216.0,8304.0,3206.0,34°01′N 118°25′W﻿ / ﻿34.01°N 118.41°W,34.01,118.41,Tony Thurmond,5496271,"319,004[1]",1:17.2,977,9006,85.0,"$14,031"
6,8,San Diego,California,1381611,1386932,-0.003851301126004353,325.9,844.1,4256.0,1643.0,32°49′N 117°08′W﻿ / ﻿32.81°N 117.13°W,32.81,117.13,Tony Thurmond,5496271,"319,004[1]",1:17.2,977,9006,85.0,"$14,031"
7,10,San Jose,California,983489,1013240,-0.030250465434793882,178.3,461.8,5683.0,2194.0,37°17′N 121°49′W﻿ / ﻿37.29°N 121.81°W,37.29,121.81,Tony Thurmond,5496271,"319,004[1]",1:17.2,977,9006,85.0,"$14,031"
8,17,San Francisco,California,815201,873965,-0.07208528939488543,46.9,121.5,18635.0,7195.0,37°43′N 123°02′W﻿ / ﻿37.72°N 123.03°W,37.72,123.03,Tony Thurmond,5496271,"319,004[1]",1:17.2,977,9006,85.0,"$14,031"
9,33,Fresno,California,544510,542107,0.004413142091054342,115.2,298.4,4706.0,1817.0,36°47′N 119°47′W﻿ / ﻿36.78°N 119.79°W,36.78,119.79,Tony Thurmond,5496271,"319,004[1]",1:17.2,977,9006,85.0,"$14,031"
10,35,Sacramento,California,525041,524943,0.000186652090027255,98.6,255.4,5324.0,2056.0,38°34′N 121°28′W﻿ / ﻿38.56°N 121.46°W,38.56,121.46,Tony Thurmond,5496271,"319,004[1]",1:17.2,977,9006,85.0,"$14,031"
11,43,Long Beach,California,456062,466742,-0.023417868623125802,50.7,131.3,9206.0,3554.0,33°48′N 118°09′W﻿ / ﻿33.80°N 118.15°W,33.8,118.15,Tony Thurmond,5496271,"319,004[1]",1:17.2,977,9006,85.0,"$14,031"
12,45,Oakland,California,433823,440646,-0.01572761241335752,55.9,144.8,7883.0,3044.0,37°46′N 122°13′W﻿ / ﻿37.76°N 122.22°W,37.76,122.22,Tony Thurmond,5496271,"319,004[1]",1:17.2,977,9006,85.0,"$14,031"
13,48,Bakersfield,California,407615,403455,0.010205708818370275,149.8,388.0,2693.0,1040.0,35°19′N 119°01′W﻿ / ﻿35.32°N 119.01°W,35.32,119.01,Tony Thurmond,5496271,"319,004[1]",1:17.2,977,9006,85.0,"$14,031"
14,55,Anaheim,California,345940,346824,-0.002555356420188472,50.3,130.3,6895.0,2662.0,33°51′N 117°46′W﻿ / ﻿33.85°N 117.76°W,33.85,117.76,Tony Thurmond,5496271,"319,004[1]",1:17.2,977,9006,85.0,"$14,031"
15,58,Stockton,California,322120,320804,0.0040854339997516455,62.2,161.1,5158.0,1992.0,37°58′N 121°19′W﻿ / ﻿37.97°N 121.31°W,37.97,121.31,Tony Thurmond,5496271,"319,004[1]",1:17.2,977,9006,85.0,"$14,031"
16,61,Riverside,California,317261,314998,0.007132928409101655,81.2,210.3,3879.0,1498.0,33°56′N 117°23′W﻿ / ﻿33.93°N 117.39°W,33.93,117.39,Tony Thurmond,5496271,"319,004[1]",1:17.2,977,9006,85.0,"$14,031"
17,62,Santa Ana,California,309441,310227,-0.002540064180247608,27.3,70.7,11364.0,4388.0,33°44′N 117°53′W﻿ / ﻿33.73°N 117.88°W,33.73,117.88,Tony Thurmond,5496271,"319,004[1]",1:17.2,977,9006,85.0,"$14,031"
18,64,Irvine,California,309031,307670,0.00440408891017406,65.6,169.9,4690.0,1810.0,33°40′N 117°46′W﻿ / ﻿33.67°N 117.77°W,33.67,117.77,Tony Thurmond,5496271,"319,004[1]",1:17.2,977,9006,85.0,"$14,031"
19,77,Chula Vista,California,277220,275487,0.006251352716254238,49.6,128.5,5554.0,2144.0,32°37′N 117°01′W﻿ / ﻿32.62°N 117.01°W,32.62,117.01,Tony Thurmond,5496271,"319,004[1]",1:17.2,977,9006,85.0,"$14,031"
20,97,Fremont,California,227514,230504,-0.013142048401417056,78.3,202.8,2944.0,1137.0,37°29′N 121°56′W﻿ / ﻿37.49°N 121.94°W,37.49,121.94,Tony Thurmond,5496271,"319,004[1]",1:17.2,977,9006,85.0,"$14,031"
21,99,Santa Clarita,California,224593,228673,-0.01816619395974051,70.8,183.4,3230.0,1250.0,34°24′N 118°30′W﻿ / ﻿34.40°N 118.50°W,34.4,118.5,Tony Thurmond,5496271,"319,004[1]",1:17.2,977,9006,85.0,"$14,031"
22,100,San Bernardino,California,222203,222101,0.0004590397069346498,62.1,160.8,3577.0,1381.0,34°08′N 117°17′W﻿ / ﻿34.14°N 117.29°W,34.14,117.29,Tony Thurmond,5496271,"319,004[1]",1:17.2,977,9006,85.0,"$14,031"
23,104,Modesto,California,218771,218464,0.0014032938552184704,43.0,111.4,5081.0,1962.0,37°38′N 121°00′W﻿ / ﻿37.63°N 121.00°W,37.63,121.0,Tony Thurmond,5496271,"319,004[1]",1:17.2,977,9006,85.0,"$14,031"
24,108,Moreno Valley,California,211600,208634,0.014017013232514178,51.3,132.9,4067.0,1570.0,33°55′N 117°12′W﻿ / ﻿33.92°N 117.20°W,33.92,117.2,Tony Thurmond,5496271,"319,004[1]",1:17.2,977,9006,85.0,"$14,031"
25,109,Fontana,California,210761,208393,0.011235475253960648,43.1,111.6,4835.0,1867.0,34°06′N 117°28′W﻿ / ﻿34.10°N 117.46°W,34.1,117.46,Tony Thurmond,5496271,"319,004[1]",1:17.2,977,9006,85.0,"$14,031"
26,119,Oxnard,California,201879,202063,-0.0009114370489253464,26.5,68.6,7625.0,2944.0,34°12′N 119°12′W﻿ / ﻿34.20°N 119.20°W,34.2,119.2,Tony Thurmond,5496271,"319,004[1]",1:17.2,977,9006,85.0,"$14,031"
27,129,Huntington Beach,California,196652,198711,-0.010470272359294592,27.0,69.9,7360.0,2840.0,33°41′N 118°00′W﻿ / ﻿33.69°N 118.00°W,33.69,118.0,Tony Thurmond,5496271,"319,004[1]",1:17.2,977,9006,85.0,"$14,031"
28,133,Glendale,California,192366,196543,-0.02171381637087635,30.5,79.0,6444.0,2488.0,34°11′N 118°14′W﻿ / ﻿34.18°N 118.24°W,34.18,118.24,Tony Thurmond,5496271,"319,004[1]",1:17.2,977,9006,85.0,"$14,031"
29,145,Elk Grove,California,178997,176124,0.01605054833321229,42.0,108.8,4193.0,1619.0,38°25′N 121°23′W﻿ / ﻿38.41°N 121.38°W,38.41,121.38,Tony Thurmond,5496271,"319,004[1]",1:17.2,977,9006,85.0,"$14,031"
30,146,Ontario,California,177963,175265,0.015160454701258127,50.0,129.5,3505.0,1353.0,34°02′N 117°36′W﻿ / ﻿34.03°N 117.60°W,34.03,117.6,Tony Thurmond,5496271,"319,004[1]",1:17.2,977,9006,85.0,"$14,031"
31,149,Santa Rosa,California,176938,178127,-0.006719867976353299,42.5,110.1,4191.0,1618.0,38°26′N 122°42′W﻿ / ﻿38.44°N 122.70°W,38.44,122.7,Tony Thurmond,5496271,"319,004[1]",1:17.2,977,9006,85.0,"$14,031"
32,150,Rancho Cucamonga,California,175142,174453,0.003933950737116169,40.1,103.9,4350.0,1680.0,34°07′N 117°34′W﻿ / ﻿34.12°N 117.56°W,34.12,117.56,Tony Thurmond,5496271,"319,004[1]",1:17.2,977,9006,85.0,"$14,031"
33,152,Oceanside,California,172982,174068,-0.006278109861141622,41.3,107.0,4215.0,1627.0,33°13′N 117°18′W﻿ / ﻿33.22°N 117.30°W,33.22,117.3,Tony Thurmond,5496271,"319,004[1]",1:17.2,977,9006,85.0,"$14,031"
34,154,Garden Grove,California,170488,171949,-0.008569518089249684,18.0,46.6,9553.0,3688.0,33°46′N 117°58′W﻿ / ﻿33.77°N 117.96°W,33.77,117.96,Tony Thurmond,5496271,"319,004[1]",1:17.2,977,9006,85.0,"$14,031"
35,155,Lancaster,California,170150,173516,-0.01978254481339994,94.3,244.2,1840.0,710.0,34°41′N 118°10′W﻿ / ﻿34.69°N 118.17°W,34.69,118.17,Tony Thurmond,5496271,"319,004[1]",1:17.2,977,9006,85.0,"$14,031"
36,159,Palmdale,California,165761,169450,-0.022254933307593462,106.1,274.8,1597.0,617.0,34°35′N 118°06′W﻿ / ﻿34.59°N 118.10°W,34.59,118.1,Tony Thurmond,5496271,"319,004[1]",1:17.2,977,9006,85.0,"$14,031"
37,160,Salinas,California,162791,163542,-0.004613277146771013,23.5,60.9,6959.0,2687.0,36°41′N 121°38′W﻿ / ﻿36.69°N 121.63°W,36.69,121.63,Tony Thurmond,5496271,"319,004[1]",1:17.2,977,9006,85.0,"$14,031"
38,161,Hayward,California,159827,162954,-0.019564904553047983,45.8,118.6,3558.0,1374.0,37°37′N 122°06′W﻿ / ﻿37.62°N 122.10°W,37.62,122.1,Tony Thurmond,5496271,"319,004[1]",1:17.2,977,9006,85.0,"$14,031"
39,162,Corona,California,159743,157136,0.016319963942081968,39.9,103.3,3938.0,1520.0,33°52′N 117°34′W﻿ / ﻿33.86°N 117.56°W,33.86,117.56,Tony Thurmond,5496271,"319,004[1]",1:17.2,977,9006,85.0,"$14,031"
40,171,Sunnyvale,California,152258,155805,-0.023295984447451037,22.1,57.2,7050.0,2720.0,37°23′N 122°01′W﻿ / ﻿37.38°N 122.02°W,37.38,122.02,Tony Thurmond,5496271,"319,004[1]",1:17.2,977,9006,85.0,"$14,031"
41,173,Roseville,California,151901,147773,0.027175594630713427,44.1,114.2,3351.0,1294.0,38°46′N 121°19′W﻿ / ﻿38.76°N 121.31°W,38.76,121.31,Tony Thurmond,5496271,"319,004[1]",1:17.2,977,9006,85.0,"$14,031"
42,175,Escondido,California,150665,151038,-0.0024756911027776856,37.3,96.6,4049.0,1563.0,33°08′N 117°04′W﻿ / ﻿33.13°N 117.07°W,33.13,117.07,Tony Thurmond,5496271,"319,004[1]",1:17.2,977,9006,85.0,"$14,031"
43,182,Pomona,California,148338,151713,-0.02275209319257372,23.0,59.6,6596.0,2547.0,34°03′N 117°46′W﻿ / ﻿34.05°N 117.76°W,34.05,117.76,Tony Thurmond,5496271,"319,004[1]",1:17.2,977,9006,85.0,"$14,031"
44,190,Torrance,California,143600,147067,-0.024143454038997213,20.5,53.1,7174.0,2770.0,33°50′N 118°20′W﻿ / ﻿33.83°N 118.34°W,33.83,118.34,Tony Thurmond,5496271,"319,004[1]",1:17.2,977,9006,85.0,"$14,031"
45,192,Visalia,California,142978,141384,0.011148568311208718,37.9,98.2,3730.0,1440.0,36°19′N 119°19′W﻿ / ﻿36.32°N 119.32°W,36.32,119.32,Tony Thurmond,5496271,"319,004[1]",1:17.2,977,9006,85.0,"$14,031"
46,194,Fullerton,California,141874,143617,-0.012285549149245106,22.4,58.0,6411.0,2475.0,33°53′N 117°55′W﻿ / ﻿33.88°N 117.92°W,33.88,117.92,Tony Thurmond,5496271,"319,004[1]",1:17.2,977,9006,85.0,"$14,031"
47,203,Orange,California,137264,139911,-0.019284007460076934,25.7,66.6,5444.0,2102.0,33°47′N 117°52′W﻿ / ﻿33.78°N 117.86°W,33.78,117.86,Tony Thurmond,5496271,"319,004[1]",1:17.2,977,9006,85.0,"$14,031"
48,206,Victorville,California,135950,134810,0.00838543582199338,73.7,190.9,1829.0,706.0,34°31′N 117°21′W﻿ / ﻿34.52°N 117.35°W,34.52,117.35,Tony Thurmond,5496271,"319,004[1]",1:17.2,977,9006,85.0,"$14,031"
49,207,Pasadena,California,135732,138699,-0.021859252055521174,23.0,59.6,6030.0,2330.0,34°10′N 118°08′W﻿ / ﻿34.16°N 118.13°W,34.16,118.13,Tony Thurmond,5496271,"319,004[1]",1:17.2,977,9006,85.0,"$14,031"
50,218,Santa Clara,California,127151,127647,-0.003900873764264536,18.3,47.4,6975.0,2693.0,37°22′N 121°58′W﻿ / ﻿37.36°N 121.96°W,37.36,121.96,Tony Thurmond,5496271,"319,004[1]",1:17.2,977,9006,85.0,"$14,031"
51,222,Simi Valley,California,125975,126356,-0.003024409605080373,41.5,107.5,3045.0,1176.0,34°16′N 118°44′W﻿ / ﻿34.26°N 118.74°W,34.26,118.74,Tony Thurmond,5496271,"319,004[1]",1:17.2,977,9006,85.0,"$14,031"
52,226,Thousand Oaks,California,125754,126966,-0.009637864401927572,55.3,143.2,2296.0,886.0,34°11′N 118°52′W﻿ / ﻿34.19°N 118.87°W,34.19,118.87,Tony Thurmond,5496271,"319,004[1]",1:17.2,977,9006,85.0,"$14,031"
53,228,Vallejo,California,124886,126090,-0.009640792402671235,30.4,78.7,4148.0,1602.0,38°06′N 122°16′W﻿ / ﻿38.10°N 122.26°W,38.1,122.26,Tony Thurmond,5496271,"319,004[1]",1:17.2,977,9006,85.0,"$14,031"
54,229,Concord,California,124074,125410,-0.010767767622547834,30.6,79.3,4098.0,1582.0,37°58′N 122°00′W﻿ / ﻿37.97°N 122.00°W,37.97,122.0,Tony Thurmond,5496271,"319,004[1]",1:17.2,977,9006,85.0,"$14,031"
55,232,Clovis,California,122989,120124,0.02329476619860313,25.4,65.8,4729.0,1826.0,36°49′N 119°41′W﻿ / ﻿36.82°N 119.68°W,36.82,119.68,Tony Thurmond,5496271,"319,004[1]",1:17.2,977,9006,85.0,"$14,031"
56,240,Fairfield,California,119705,119881,-0.0014702811077231528,41.6,107.7,2882.0,1113.0,38°15′N 122°02′W﻿ / ﻿38.25°N 122.03°W,38.25,122.03,Tony Thurmond,5496271,"319,004[1]",1:17.2,977,9006,85.0,"$14,031"
57,245,Berkeley,California,117145,124321,-0.06125741602287763,10.4,26.9,11954.0,4615.0,37°52′N 122°17′W﻿ / ﻿37.86°N 122.29°W,37.86,122.29,Tony Thurmond,5496271,"319,004[1]",1:17.2,977,9006,85.0,"$14,031"
58,252,Richmond,California,115639,116448,-0.006995909684449018,30.1,78.0,3869.0,1494.0,37°57′N 122°22′W﻿ / ﻿37.95°N 122.36°W,37.95,122.36,Tony Thurmond,5496271,"319,004[1]",1:17.2,977,9006,85.0,"$14,031"
59,256,Carlsbad,California,115302,114746,0.004822119304088394,37.8,97.9,3036.0,1172.0,33°07′N 117°17′W﻿ / ﻿33.12°N 117.28°W,33.12,117.28,Tony Thurmond,5496271,"319,004[1]",1:17.2,977,9006,85.0,"$14,031"
60,257,Antioch,California,114794,115291,-0.004329494572887085,29.2,75.6,3948.0,1524.0,37°58′N 121°47′W﻿ / ﻿37.97°N 121.79°W,37.97,121.79,Tony Thurmond,5496271,"319,004[1]",1:17.2,977,9006,85.0,"$14,031"
61,266,Murrieta,California,112991,110949,0.018072235841792707,33.6,87.0,3302.0,1275.0,33°34′N 117°11′W﻿ / ﻿33.57°N 117.19°W,33.57,117.19,Tony Thurmond,5496271,"319,004[1]",1:17.2,977,9006,85.0,"$14,031"
62,274,Downey,California,111645,114355,-0.02427336647409199,12.4,32.1,9222.0,3561.0,33°56′N 118°08′W﻿ / ﻿33.93°N 118.13°W,33.93,118.13,Tony Thurmond,5496271,"319,004[1]",1:17.2,977,9006,85.0,"$14,031"
63,277,Temecula,California,110846,110003,0.007605145878065063,37.3,96.6,2949.0,1139.0,33°29′N 117°08′W﻿ / ﻿33.49°N 117.13°W,33.49,117.13,Tony Thurmond,5496271,"319,004[1]",1:17.2,977,9006,85.0,"$14,031"
64,279,Costa Mesa,California,110750,111918,-0.01054627539503386,15.8,40.9,7083.0,2735.0,33°40′N 117°55′W﻿ / ﻿33.66°N 117.91°W,33.66,117.91,Tony Thurmond,5496271,"319,004[1]",1:17.2,977,9006,85.0,"$14,031"
65,280,Ventura,California,109925,110763,-0.007623379576984307,21.9,56.7,5058.0,1953.0,34°16′N 119°15′W﻿ / ﻿34.26°N 119.25°W,34.26,119.25,Tony Thurmond,5496271,"319,004[1]",1:17.2,977,9006,85.0,"$14,031"
66,282,Santa Maria,California,109711,109707,3.6459425217161454e-05,22.8,59.1,4812.0,1858.0,34°56′N 120°26′W﻿ / ﻿34.93°N 120.44°W,34.93,120.44,Tony Thurmond,5496271,"319,004[1]",1:17.2,977,9006,85.0,"$14,031"
67,291,West Covina,California,107017,109501,-0.023211265499873852,16.0,41.4,6844.0,2642.0,34°03′N 117°54′W﻿ / ﻿34.05°N 117.90°W,34.05,117.9,Tony Thurmond,5496271,"319,004[1]",1:17.2,977,9006,85.0,"$14,031"
68,294,Jurupa Valley,California,106941,105053,0.017654594589540027,42.9,111.1,2449.0,946.0,34°00′N 117°28′W﻿ / ﻿34.00°N 117.46°W,34.0,117.46,Tony Thurmond,5496271,"319,004[1]",1:17.2,977,9006,85.0,"$14,031"
69,295,El Monte,California,106907,109450,-0.023787029848372884,9.6,24.9,11401.0,4402.0,34°04′N 118°01′W﻿ / ﻿34.07°N 118.02°W,34.07,118.02,Tony Thurmond,5496271,"319,004[1]",1:17.2,977,9006,85.0,"$14,031"
70,298,Menifee,California,106401,102527,0.03640943224217817,46.5,120.4,2205.0,851.0,33°41′N 117°11′W﻿ / ﻿33.69°N 117.19°W,33.69,117.19,Tony Thurmond,5496271,"319,004[1]",1:17.2,977,9006,85.0,"$14,031"
71,303,El Cajon,California,105432,106215,-0.007426587753243797,14.5,37.6,7325.0,2828.0,32°48′N 116°58′W﻿ / ﻿32.80°N 116.96°W,32.8,116.96,Tony Thurmond,5496271,"319,004[1]",1:17.2,977,9006,85.0,"$14,031"
72,304,Burbank,California,105401,107337,-0.018367947173176725,17.3,44.8,6204.0,2395.0,34°11′N 118°19′W﻿ / ﻿34.19°N 118.32°W,34.19,118.32,Tony Thurmond,5496271,"319,004[1]",1:17.2,977,9006,85.0,"$14,031"
73,305,Inglewood,California,105181,107762,-0.024538652418212414,9.1,23.6,11842.0,4572.0,33°57′N 118°20′W﻿ / ﻿33.95°N 118.34°W,33.95,118.34,Tony Thurmond,5496271,"319,004[1]",1:17.2,977,9006,85.0,"$14,031"
74,308,Rialto,California,104394,104026,0.0035251068069046113,24.1,62.4,4316.0,1666.0,34°07′N 117°23′W﻿ / ﻿34.11°N 117.38°W,34.11,117.38,Tony Thurmond,5496271,"319,004[1]",1:17.2,977,9006,85.0,"$14,031"
75,312,Vacaville,California,103078,102386,0.0067133626962106365,29.9,77.4,3424.0,1322.0,38°21′N 121°58′W﻿ / ﻿38.35°N 121.97°W,38.35,121.97,Tony Thurmond,5496271,"319,004[1]",1:17.2,977,9006,85.0,"$14,031"
76,316,Chico,California,102338,101475,0.00843284019621255,34.1,88.3,2976.0,1149.0,39°44′N 121°50′W﻿ / ﻿39.74°N 121.83°W,39.74,121.83,Tony Thurmond,5496271,"319,004[1]",1:17.2,977,9006,85.0,"$14,031"
77,317,San Mateo,California,102200,105661,-0.033864970645792566,12.1,31.3,8732.0,3371.0,37°34′N 122°19′W﻿ / ﻿37.56°N 122.31°W,37.56,122.31,Tony Thurmond,5496271,"319,004[1]",1:17.2,977,9006,85.0,"$14,031"
78,321,Daly City,California,101243,104901,-0.03613089300000988,7.6,19.7,13803.0,5329.0,37°42′N 122°28′W﻿ / ﻿37.70°N 122.46°W,37.7,122.46,Tony Thurmond,5496271,"319,004[1]",1:17.2,977,9006,85.0,"$14,031"
79,325,Hesperia,California,100971,99818,0.011419120341484188,72.7,188.3,1373.0,530.0,34°25′N 117°19′W﻿ / ﻿34.41°N 117.31°W,34.41,117.31,Tony Thurmond,5496271,"319,004[1]",1:17.2,977,9006,85.0,"$14,031"
80,331,Norwalk,California,100373,102773,-0.02391081266874558,9.7,25.1,10595.0,4091.0,33°54′N 118°05′W﻿ / ﻿33.90°N 118.08°W,33.9,118.08,Tony Thurmond,5496271,"319,004[1]",1:17.2,977,9006,85.0,"$14,031"
81,3,Chicago,Illinois,2696555,2746388,-0.01848024609177265,227.7,589.7,12061.0,4657.0,41°50′N 87°41′W﻿ / ﻿41.83°N 87.68°W,41.83,87.68,Carmen Ayala,1925415,130467,1: 14.7,853,3977,86.0,"$12,288"
82,144,Aurora,Illinois,179266,180542,-0.007117914161079067,45.0,116.5,4012.0,1549.0,41°46′N 88°17′W﻿ / ﻿41.76°N 88.29°W,41.76,88.29,Carmen Ayala,1925415,130467,1: 14.7,853,3977,86.0,"$12,288"
83,176,Joliet,Illinois,150372,150362,6.650174234564946e-05,64.5,167.1,2331.0,900.0,41°31′N 88°08′W﻿ / ﻿41.51°N 88.14°W,41.51,88.14,Carmen Ayala,1925415,130467,1: 14.7,853,3977,86.0,"$12,288"
84,180,Naperville,Illinois,149104,149540,-0.0029241334907178884,39.1,101.3,3825.0,1477.0,41°44′N 88°10′W﻿ / ﻿41.74°N 88.16°W,41.74,88.16,Carmen Ayala,1925415,130467,1: 14.7,853,3977,86.0,"$12,288"
85,185,Rockford,Illinois,147711,148655,-0.0063908578237233515,64.5,167.1,2305.0,890.0,42°15′N 89°04′W﻿ / ﻿42.25°N 89.06°W,42.25,89.06,Carmen Ayala,1925415,130467,1: 14.7,853,3977,86.0,"$12,288"
86,262,Elgin,Illinois,113911,114797,-0.0077780021244655915,38.0,98.4,3021.0,1166.0,42°02′N 88°19′W﻿ / ﻿42.03°N 88.32°W,42.03,88.32,Carmen Ayala,1925415,130467,1: 14.7,853,3977,86.0,"$12,288"
87,264,Springfield,Illinois,113394,114394,-0.008818808755313332,61.1,158.2,1872.0,723.0,39°47′N 89°38′W﻿ / ﻿39.79°N 89.64°W,39.79,89.64,Carmen Ayala,1925415,130467,1: 14.7,853,3977,86.0,"$12,288"
88,273,Peoria,Illinois,111666,113150,-0.01328963157989003,48.0,124.3,2357.0,910.0,40°45′N 89°37′W﻿ / ﻿40.75°N 89.61°W,40.75,89.61,Carmen Ayala,1925415,130467,1: 14.7,853,3977,86.0,"$12,288"
89,4,Houston,Texas,2288250,2304580,-0.007136457991915219,640.4,1658.6,3599.0,1390.0,29°47′N 95°23′W﻿ / ﻿29.78°N 95.39°W,29.78,95.39,Mike Morath,5156972,344362,1:14.9,1022,8161,90.0,"$10,342"
90,7,San Antonio,Texas,1451853,1434625,0.011866215105799278,498.8,1291.9,2876.0,1110.0,29°28′N 98°31′W﻿ / ﻿29.47°N 98.52°W,29.47,98.52,Mike Morath,5156972,344362,1:14.9,1022,8161,90.0,"$10,342"
91,9,Dallas,Texas,1288457,1304379,-0.012357416661945257,339.6,879.6,3841.0,1483.0,32°47′N 96°46′W﻿ / ﻿32.79°N 96.76°W,32.79,96.76,Mike Morath,5156972,344362,1:14.9,1022,8161,90.0,"$10,342"
92,11,Austin,Texas,964177,961855,0.0024082715103139777,319.9,828.5,3007.0,1161.0,30°18′N 97°45′W﻿ / ﻿30.30°N 97.75°W,30.3,97.75,Mike Morath,5156972,344362,1:14.9,1022,8161,90.0,"$10,342"
93,13,Fort Worth,Texas,935508,918915,0.017736887338216243,342.9,888.1,2646.0,1022.0,32°47′N 97°20′W﻿ / ﻿32.78°N 97.34°W,32.78,97.34,Mike Morath,5156972,344362,1:14.9,1022,8161,90.0,"$10,342"
94,22,El Paso,Texas,678415,678815,-0.0005896096047404612,258.4,669.3,2627.0,1014.0,31°50′N 106°25′W﻿ / ﻿31.84°N 106.42°W,31.84,106.42,Mike Morath,5156972,344362,1:14.9,1022,8161,90.0,"$10,342"
95,50,Arlington,Texas,392786,394266,-0.0037679550696817095,95.9,248.4,4111.0,1587.0,32°42′N 97°07′W﻿ / ﻿32.70°N 97.12°W,32.7,97.12,Mike Morath,5156972,344362,1:14.9,1022,8161,90.0,"$10,342"
96,60,Corpus Christi,Texas,317773,317863,-0.0002832210414352384,162.2,420.1,1960.0,760.0,27°45′N 97°10′W﻿ / ﻿27.75°N 97.17°W,27.75,97.17,Mike Morath,5156972,344362,1:14.9,1022,8161,90.0,"$10,342"
97,72,Plano,Texas,288253,285494,0.009571452855651112,71.7,185.7,3982.0,1537.0,33°03′N 96°44′W﻿ / ﻿33.05°N 96.74°W,33.05,96.74,Mike Morath,5156972,344362,1:14.9,1022,8161,90.0,"$10,342"
98,85,Lubbock,Texas,260993,257141,0.014759016525347423,134.6,348.6,1910.0,740.0,33°34′N 101°53′W﻿ / ﻿33.56°N 101.88°W,33.56,101.88,Mike Morath,5156972,344362,1:14.9,1022,8161,90.0,"$10,342"
99,87,Laredo,Texas,256153,255205,0.0037009131261394558,106.5,275.8,2396.0,925.0,27°34′N 99°29′W﻿ / ﻿27.56°N 99.48°W,27.56,99.48,Mike Morath,5156972,344362,1:14.9,1022,8161,90.0,"$10,342"
100,88,Irving,Texas,254198,256684,-0.009779777968355377,67.0,173.5,3831.0,1479.0,32°51′N 96°58′W﻿ / ﻿32.85°N 96.97°W,32.85,96.97,Mike Morath,5156972,344362,1:14.9,1022,8161,90.0,"$10,342"
101,93,Garland,Texas,242035,246018,-0.016456297642902885,57.1,147.9,4309.0,1664.0,32°54′N 96°38′W﻿ / ﻿32.90°N 96.63°W,32.9,96.63,Mike Morath,5156972,344362,1:14.9,1022,8161,90.0,"$10,342"
102,110,Frisco,Texas,210719,200509,0.04845315325148658,68.6,177.7,2923.0,1129.0,33°09′N 96°49′W﻿ / ﻿33.15°N 96.82°W,33.15,96.82,Mike Morath,5156972,344362,1:14.9,1022,8161,90.0,"$10,342"
103,117,McKinney,Texas,202690,195308,0.03642014899600375,67.0,173.5,2915.0,1125.0,33°11′N 96°40′W﻿ / ﻿33.19°N 96.66°W,33.19,96.66,Mike Morath,5156972,344362,1:14.9,1022,8161,90.0,"$10,342"
104,120,Amarillo,Texas,201234,200393,0.004179214248089289,102.3,265.0,1959.0,756.0,35°11′N 101°50′W﻿ / ﻿35.19°N 101.83°W,35.19,101.83,Mike Morath,5156972,344362,1:14.9,1022,8161,90.0,"$10,342"
105,126,Grand Prairie,Texas,197347,196100,0.006318819135836876,72.6,188.0,2701.0,1043.0,32°41′N 97°01′W﻿ / ﻿32.68°N 97.02°W,32.68,97.02,Mike Morath,5156972,344362,1:14.9,1022,8161,90.0,"$10,342"
106,137,Brownsville,Texas,187831,186738,0.00581906075142016,131.5,340.6,1420.0,550.0,25°59′N 97°27′W﻿ / ﻿25.99°N 97.45°W,25.99,97.45,Mike Morath,5156972,344362,1:14.9,1022,8161,90.0,"$10,342"
107,167,Killeen,Texas,156261,153095,0.020260973627456626,54.8,141.9,2794.0,1079.0,31°04′N 97°44′W﻿ / ﻿31.07°N 97.73°W,31.07,97.73,Mike Morath,5156972,344362,1:14.9,1022,8161,90.0,"$10,342"
108,181,Pasadena,Texas,148626,151950,-0.022364862137176537,43.7,113.2,3477.0,1342.0,29°39′N 95°09′W﻿ / ﻿29.65°N 95.15°W,29.65,95.15,Mike Morath,5156972,344362,1:14.9,1022,8161,90.0,"$10,342"
109,184,Denton,Texas,148146,139869,0.05587056012312178,96.4,249.7,1451.0,560.0,33°13′N 97°08′W﻿ / ﻿33.21°N 97.14°W,33.21,97.14,Mike Morath,5156972,344362,1:14.9,1022,8161,90.0,"$10,342"
110,186,Mesquite,Texas,147691,150108,-0.01636524906730945,48.5,125.6,3095.0,1195.0,32°46′N 96°35′W﻿ / ﻿32.76°N 96.58°W,32.76,96.58,Mike Morath,5156972,344362,1:14.9,1022,8161,90.0,"$10,342"
111,189,McAllen,Texas,143920,142210,0.01188160088938299,62.3,161.4,2283.0,881.0,26°14′N 98°14′W﻿ / ﻿26.23°N 98.24°W,26.23,98.24,Mike Morath,5156972,344362,1:14.9,1022,8161,90.0,"$10,342"
112,196,Waco,Texas,139594,138486,0.007937303895582904,88.7,229.7,1561.0,603.0,31°34′N 97°11′W﻿ / ﻿31.56°N 97.18°W,31.56,97.18,Mike Morath,5156972,344362,1:14.9,1022,8161,90.0,"$10,342"
113,213,Carrollton,Texas,133251,133434,-0.001373348042416192,36.7,95.1,3636.0,1404.0,32°59′N 96°53′W﻿ / ﻿32.98°N 96.89°W,32.98,96.89,Mike Morath,5156972,344362,1:14.9,1022,8161,90.0,"$10,342"
114,215,Midland,Texas,131325,132524,-0.009130020940415,75.5,195.5,1755.0,678.0,32°01′N 102°07′W﻿ / ﻿32.02°N 102.11°W,32.02,102.11,Mike Morath,5156972,344362,1:14.9,1022,8161,90.0,"$10,342"
115,221,Pearland,Texas,125990,125828,0.0012858163346297325,48.7,126.1,2584.0,998.0,29°33′N 95°19′W﻿ / ﻿29.55°N 95.32°W,29.55,95.32,Mike Morath,5156972,344362,1:14.9,1022,8161,90.0,"$10,342"
116,227,Abilene,Texas,125070,125182,-0.0008954985208283362,106.7,276.4,1173.0,453.0,32°27′N 99°44′W﻿ / ﻿32.45°N 99.73°W,32.45,99.73,Mike Morath,5156972,344362,1:14.9,1022,8161,90.0,"$10,342"
117,230,Round Rock,Texas,123876,119468,0.035583971067842037,37.6,97.4,3177.0,1227.0,30°31′N 97°40′W﻿ / ﻿30.52°N 97.66°W,30.52,97.66,Mike Morath,5156972,344362,1:14.9,1022,8161,90.0,"$10,342"
118,239,College Station,Texas,120019,120511,-0.004099350936101784,51.2,132.6,2354.0,909.0,30°35′N 96°17′W﻿ / ﻿30.58°N 96.29°W,30.58,96.29,Mike Morath,5156972,344362,1:14.9,1022,8161,90.0,"$10,342"
119,250,Richardson,Texas,116382,119469,-0.02652472031757488,28.6,74.1,4177.0,1613.0,32°58′N 96°42′W﻿ / ﻿32.97°N 96.70°W,32.97,96.7,Mike Morath,5156972,344362,1:14.9,1022,8161,90.0,"$10,342"
120,253,League City,Texas,115595,114392,0.010407024525282235,51.3,132.9,2230.0,860.0,29°29′N 95°06′W﻿ / ﻿29.49°N 95.10°W,29.49,95.1,Mike Morath,5156972,344362,1:14.9,1022,8161,90.0,"$10,342"
121,267,Lewisville,Texas,112944,111822,0.00993412664683383,37.0,95.8,3022.0,1167.0,33°02′N 96°59′W﻿ / ﻿33.04°N 96.98°W,33.04,96.98,Mike Morath,5156972,344362,1:14.9,1022,8161,90.0,"$10,342"
122,270,Beaumont,Texas,112556,115282,-0.024219055403532464,82.5,213.7,1397.0,539.0,30°05′N 94°08′W﻿ / ﻿30.08°N 94.14°W,30.08,94.14,Mike Morath,5156972,344362,1:14.9,1022,8161,90.0,"$10,342"
123,271,Odessa,Texas,112483,114428,-0.017291501826942737,51.1,132.3,2239.0,864.0,31°53′N 102°20′W﻿ / ﻿31.88°N 102.34°W,31.88,102.34,Mike Morath,5156972,344362,1:14.9,1022,8161,90.0,"$10,342"
124,283,Sugar Land,Texas,109373,111026,-0.015113419216808536,40.5,104.9,2741.0,1058.0,29°35′N 95°37′W﻿ / ﻿29.59°N 95.61°W,29.59,95.61,Mike Morath,5156972,344362,1:14.9,1022,8161,90.0,"$10,342"
125,289,Tyler,Texas,107192,105995,0.011166878125233226,57.5,148.9,1843.0,712.0,32°19′N 95°18′W﻿ / ﻿32.31°N 95.30°W,32.31,95.3,Mike Morath,5156972,344362,1:14.9,1022,8161,90.0,"$10,342"
126,296,Allen,Texas,106874,104627,0.021024758126391825,26.4,68.4,3963.0,1530.0,33°05′N 96°40′W﻿ / ﻿33.09°N 96.66°W,33.09,96.66,Mike Morath,5156972,344362,1:14.9,1022,8161,90.0,"$10,342"
127,313,Wichita Falls,Texas,102988,102316,0.006525032042568066,72.0,186.5,1421.0,549.0,33°54′N 98°31′W﻿ / ﻿33.90°N 98.52°W,33.9,98.52,Mike Morath,5156972,344362,1:14.9,1022,8161,90.0,"$10,342"
128,315,Edinburg,Texas,102483,100243,0.0218572836470439,44.7,115.8,2243.0,866.0,26°18′N 98°10′W﻿ / ﻿26.30°N 98.16°W,26.3,98.16,Mike Morath,5156972,344362,1:14.9,1022,8161,90.0,"$10,342"
129,5,Phoenix,Arizona,1624569,1608139,0.010113451629324454,518.0,1341.6,3105.0,1199.0,33°34′N 112°05′W﻿ / ﻿33.57°N 112.09°W,33.57,112.09,Kathy Hoffman,970751,49841,1:19,230,1590,78.0,"$8,785"
130,34,Tucson,Arizona,543242,542629,0.0011284105426310927,241.0,624.2,2252.0,870.0,32°09′N 110°52′W﻿ / ﻿32.15°N 110.87°W,32.15,110.87,Kathy Hoffman,970751,49841,1:19,230,1590,78.0,"$8,785"
131,36,Mesa,Arizona,509475,504258,0.010239952892683644,138.7,359.2,3636.0,1404.0,33°24′N 111°43′W﻿ / ﻿33.40°N 111.71°W,33.4,111.71,Kathy Hoffman,970751,49841,1:19,230,1590,78.0,"$8,785"
132,76,Chandler,Arizona,279458,275987,0.012420471054684424,65.3,169.1,4226.0,1632.0,33°17′N 111°51′W﻿ / ﻿33.28°N 111.85°W,33.28,111.85,Kathy Hoffman,970751,49841,1:19,230,1590,78.0,"$8,785"
133,80,Gilbert,Arizona,273136,267918,0.019104036084587897,68.6,177.7,3906.0,1508.0,33°19′N 111°44′W﻿ / ﻿33.31°N 111.74°W,33.31,111.74,Kathy Hoffman,970751,49841,1:19,230,1590,78.0,"$8,785"
134,91,Glendale,Arizona,249630,248325,0.005227737050835236,61.6,159.5,4031.0,1556.0,33°32′N 112°11′W﻿ / ﻿33.53°N 112.18°W,33.53,112.18,Kathy Hoffman,970751,49841,1:19,230,1590,78.0,"$8,785"
135,92,Scottsdale,Arizona,242753,241361,0.0057342236759174966,184.0,476.6,1312.0,507.0,33°41′N 111°52′W﻿ / ﻿33.68°N 111.86°W,33.68,111.86,Kathy Hoffman,970751,49841,1:19,230,1590,78.0,"$8,785"
136,131,Peoria,Arizona,194917,190985,0.020172688888090828,176.1,456.1,1085.0,419.0,33°47′N 112°18′W﻿ / ﻿33.78°N 112.30°W,33.78,112.3,Kathy Hoffman,970751,49841,1:19,230,1590,78.0,"$8,785"
137,140,Tempe,Arizona,184118,180587,0.01917791850878241,39.9,103.3,4526.0,1747.0,33°23′N 111°56′W﻿ / ﻿33.38°N 111.93°W,33.38,111.93,Kathy Hoffman,970751,49841,1:19,230,1590,78.0,"$8,785"
138,179,Surprise,Arizona,149191,143148,0.040505124303744866,110.3,285.7,1298.0,501.0,33°40′N 112°27′W﻿ / ﻿33.67°N 112.45°W,33.67,112.45,Kathy Hoffman,970751,49841,1:19,230,1590,78.0,"$8,785"
139,319,Goodyear,Arizona,101733,95294,0.06329313005612731,191.3,495.5,498.0,192.0,33°27′N 112°22′W﻿ / ﻿33.45°N 112.36°W,33.45,112.36,Kathy Hoffman,970751,49841,1:19,230,1590,78.0,"$8,785"
140,320,Buckeye,Arizona,101315,91502,0.09685633914030499,393.0,1017.9,233.0,90.0,33°22′N 112°35′W﻿ / ﻿33.37°N 112.59°W,33.37,112.59,Kathy Hoffman,970751,49841,1:19,230,1590,78.0,"$8,785"
141,6,Philadelphia,Pennsylvania,1576251,1603797,-0.017475643155817188,134.4,348.1,11933.0,4607.0,40°00′N 75°08′W﻿ / ﻿40.00°N 75.13°W,40.0,75.13,Eric Hagarty,1566855,108756,1:14.4,499,2685,87.0,"$17,142"
142,68,Pittsburgh,Pennsylvania,300431,302971,-0.008454520339112807,55.4,143.5,5469.0,2112.0,40°26′N 79°58′W﻿ / ﻿40.43°N 79.97°W,40.43,79.97,Eric Hagarty,1566855,108756,1:14.4,499,2685,87.0,"$17,142"
143,225,Allentown,Pennsylvania,125944,125845,0.0007860636473353236,17.6,45.6,7150.0,2760.0,40°35′N 75°28′W﻿ / ﻿40.59°N 75.47°W,40.59,75.47,Eric Hagarty,1566855,108756,1:14.4,499,2685,87.0,"$17,142"
144,12,Jacksonville,Florida,954614,949611,0.005240861751451372,747.3,1935.5,1271.0,491.0,30°20′N 81°40′W﻿ / ﻿30.33°N 81.66°W,30.33,81.66,Manny Diaz Jr.,2838866,163558,1:17,69,4202,87.0,"$9,937"
145,44,Miami,Florida,439890,442241,-0.005344517947668735,36.0,93.2,12284.0,4743.0,25°46′N 80°12′W﻿ / ﻿25.77°N 80.20°W,25.77,80.2,Manny Diaz Jr.,2838866,163558,1:17,69,4202,87.0,"$9,937"
146,52,Tampa,Florida,387050,384959,0.005402402790337166,114.0,295.3,3377.0,1304.0,27°58′N 82°28′W﻿ / ﻿27.97°N 82.47°W,27.97,82.47,Manny Diaz Jr.,2838866,163558,1:17,69,4202,87.0,"$9,937"
147,63,Orlando,Florida,309154,307573,0.005113956151303234,110.6,286.5,2781.0,1074.0,28°25′N 81°16′W﻿ / ﻿28.41°N 81.27°W,28.41,81.27,Manny Diaz Jr.,2838866,163558,1:17,69,4202,87.0,"$9,937"
148,86,St. Petersburg,Florida,258201,258308,-0.0004144058311160685,61.8,160.1,4180.0,1610.0,27°46′N 82°38′W﻿ / ﻿27.76°N 82.64°W,27.76,82.64,Manny Diaz Jr.,2838866,163558,1:17,69,4202,87.0,"$9,937"
149,102,Hialeah,Florida,220490,223109,-0.011878089709283867,21.6,55.9,10329.0,3988.0,25°52′N 80°18′W﻿ / ﻿25.86°N 80.30°W,25.86,80.3,Manny Diaz Jr.,2838866,163558,1:17,69,4202,87.0,"$9,937"
150,105,Port St. Lucie,Florida,217523,204851,0.05825590857058794,119.2,308.7,1719.0,664.0,27°17′N 80°23′W﻿ / ﻿27.28°N 80.38°W,27.28,80.38,Manny Diaz Jr.,2838866,163558,1:17,69,4202,87.0,"$9,937"
151,116,Cape Coral,Florida,204510,194016,0.05131289423500073,106.0,274.5,1830.0,710.0,26°38′N 81°59′W﻿ / ﻿26.64°N 81.99°W,26.64,81.99,Manny Diaz Jr.,2838866,163558,1:17,69,4202,87.0,"$9,937"
152,128,Tallahassee,Florida,197102,196169,0.004733589714969914,100.9,261.3,1944.0,751.0,30°27′N 84°15′W﻿ / ﻿30.45°N 84.25°W,30.45,84.25,Manny Diaz Jr.,2838866,163558,1:17,69,4202,87.0,"$9,937"
153,143,Fort Lauderdale,Florida,181668,182760,-0.006010965057137195,34.6,89.6,5282.0,2039.0,26°08′N 80°08′W﻿ / ﻿26.14°N 80.14°W,26.14,80.14,Manny Diaz Jr.,2838866,163558,1:17,69,4202,87.0,"$9,937"
154,157,Pembroke Pines,Florida,169391,171178,-0.010549556942222432,32.7,84.7,5235.0,2021.0,26°01′N 80°20′W﻿ / ﻿26.02°N 80.34°W,26.02,80.34,Manny Diaz Jr.,2838866,163558,1:17,69,4202,87.0,"$9,937"
155,172,Hollywood,Florida,152131,153067,-0.006152592173850169,27.3,70.7,5607.0,2165.0,26°02′N 80°10′W﻿ / ﻿26.03°N 80.16°W,26.03,80.16,Manny Diaz Jr.,2838866,163558,1:17,69,4202,87.0,"$9,937"
156,195,Gainesville,Florida,140398,141085,-0.004893232097323324,63.2,163.7,2232.0,862.0,29°40′N 82°20′W﻿ / ﻿29.67°N 82.34°W,29.67,82.34,Manny Diaz Jr.,2838866,163558,1:17,69,4202,87.0,"$9,937"
157,210,Miramar,Florida,135077,134721,0.002635533806643618,28.9,74.9,4662.0,1800.0,25°58′N 80°20′W﻿ / ﻿25.97°N 80.33°W,25.97,80.33,Manny Diaz Jr.,2838866,163558,1:17,69,4202,87.0,"$9,937"
158,214,Coral Springs,Florida,132822,134394,-0.011835388715724805,22.9,59.3,5869.0,2266.0,26°16′N 80°15′W﻿ / ﻿26.27°N 80.25°W,26.27,80.25,Manny Diaz Jr.,2838866,163558,1:17,69,4202,87.0,"$9,937"
159,233,Palm Bay,Florida,122942,119760,0.025882123277643117,86.4,223.8,1386.0,535.0,27°59′N 80°40′W﻿ / ﻿27.98°N 80.66°W,27.98,80.66,Manny Diaz Jr.,2838866,163558,1:17,69,4202,87.0,"$9,937"
160,244,West Palm Beach,Florida,117286,117415,-0.0010998755179646334,53.8,139.3,2182.0,842.0,26°44′N 80°07′W﻿ / ﻿26.74°N 80.12°W,26.74,80.12,Manny Diaz Jr.,2838866,163558,1:17,69,4202,87.0,"$9,937"
161,247,Clearwater,Florida,116674,117292,-0.005296809914805355,26.1,67.6,4494.0,1735.0,27°58′N 82°46′W﻿ / ﻿27.97°N 82.76°W,27.97,82.76,Manny Diaz Jr.,2838866,163558,1:17,69,4202,87.0,"$9,937"
162,255,Lakeland,Florida,115425,112641,0.024119558154645875,66.2,171.5,1702.0,657.0,28°03′N 81°57′W﻿ / ﻿28.05°N 81.95°W,28.05,81.95,Manny Diaz Jr.,2838866,163558,1:17,69,4202,87.0,"$9,937"
163,275,Pompano Beach,Florida,111348,112046,-0.006268635269605202,24.0,62.2,4669.0,1803.0,26°14′N 80°08′W﻿ / ﻿26.24°N 80.13°W,26.24,80.13,Manny Diaz Jr.,2838866,163558,1:17,69,4202,87.0,"$9,937"
164,276,Miami Gardens,Florida,110867,111640,-0.006972318183048156,18.2,47.1,6134.0,2368.0,25°56′N 80°14′W﻿ / ﻿25.94°N 80.24°W,25.94,80.24,Manny Diaz Jr.,2838866,163558,1:17,69,4202,87.0,"$9,937"
165,307,Davie,Florida,104882,105691,-0.007713430331229382,34.9,90.4,3028.0,1169.0,26°04′N 80°17′W﻿ / ﻿26.07°N 80.28°W,26.07,80.28,Manny Diaz Jr.,2838866,163558,1:17,69,4202,87.0,"$9,937"
166,15,Indianapolis,Indiana,882039,887642,-0.006352326824550842,361.6,936.5,2455.0,948.0,39°46′N 86°08′W﻿ / ﻿39.77°N 86.14°W,39.77,86.14,Katie Jenner,997869,58685,1:17,291,1769,87.0,"$9,566"
167,84,Fort Wayne,Indiana,265974,263886,0.007850391391639785,110.7,286.7,2384.0,920.0,41°05′N 85°08′W﻿ / ﻿41.08°N 85.14°W,41.08,85.14,Katie Jenner,997869,58685,1:17,291,1769,87.0,"$9,566"
168,249,Evansville,Indiana,116486,117298,-0.006970794773620864,47.4,122.8,2475.0,956.0,37°59′N 87°32′W﻿ / ﻿37.98°N 87.53°W,37.98,87.53,Katie Jenner,997869,58685,1:17,291,1769,87.0,"$9,566"
169,310,South Bend,Indiana,103353,103453,-0.0009675577873888518,42.0,108.8,2463.0,951.0,41°40′N 86°16′W﻿ / ﻿41.67°N 86.26°W,41.67,86.26,Katie Jenner,997869,58685,1:17,291,1769,87.0,"$9,566"
170,322,Fishers,Indiana,101171,98977,0.021686056280950074,35.6,92.2,2780.0,1070.0,39°58′N 86°01′W﻿ / ﻿39.96°N 86.01°W,39.96,86.01,Katie Jenner,997869,58685,1:17,291,1769,87.0,"$9,566"
171,328,Carmel,Indiana,100777,99757,0.010121357055677387,49.1,127.2,2032.0,785.0,39°35′N 86°36′W﻿ / ﻿39.58°N 86.60°W,39.58,86.6,Katie Jenner,997869,58685,1:17,291,1769,87.0,"$9,566"
172,16,Charlotte,North Carolina,879709,874579,0.00583147381690991,308.3,798.5,2837.0,1095.0,35°12′N 80°50′W﻿ / ﻿35.20°N 80.83°W,35.2,80.83,Catherine Truitt,1442736,93665,1:15.4,120,2475,87.0,"$9,958"
173,41,Raleigh,North Carolina,469124,467665,0.003110051926569521,145.1,375.8,3179.0,1227.0,35°50′N 78°38′W﻿ / ﻿35.83°N 78.64°W,35.83,78.64,Catherine Truitt,1442736,93665,1:15.4,120,2475,87.0,"$9,958"
174,69,Greensboro,North Carolina,298263,299035,-0.0025883197044219365,129.6,335.7,2307.0,891.0,36°05′N 79°49′W﻿ / ﻿36.09°N 79.82°W,36.09,79.82,Catherine Truitt,1442736,93665,1:15.4,120,2475,87.0,"$9,958"
175,74,Durham,North Carolina,285527,283506,0.007078139720586844,112.8,292.2,2513.0,970.0,35°59′N 78°54′W﻿ / ﻿35.98°N 78.90°W,35.98,78.9,Catherine Truitt,1442736,93665,1:15.4,120,2475,87.0,"$9,958"
176,90,Winston–Salem,North Carolina,250320,249545,0.0030960370725471396,132.7,343.7,1881.0,726.0,36°06′N 80°16′W﻿ / ﻿36.10°N 80.26°W,36.1,80.26,Catherine Truitt,1442736,93665,1:15.4,120,2475,87.0,"$9,958"
177,113,Fayetteville,North Carolina,208778,208501,0.0013267681460690302,148.3,384.1,1406.0,543.0,35°05′N 78°58′W﻿ / ﻿35.08°N 78.97°W,35.08,78.97,Catherine Truitt,1442736,93665,1:15.4,120,2475,87.0,"$9,958"
178,148,Cary,North Carolina,176987,174721,0.012803200235045512,59.2,153.3,2951.0,1139.0,35°47′N 78°49′W﻿ / ﻿35.78°N 78.81°W,35.78,78.81,Catherine Truitt,1442736,93665,1:15.4,120,2475,87.0,"$9,958"
179,241,Wilmington,North Carolina,117643,115451,0.018632642826177503,51.4,133.1,2246.0,867.0,34°12′N 77°53′W﻿ / ﻿34.20°N 77.88°W,34.2,77.88,Catherine Truitt,1442736,93665,1:15.4,120,2475,87.0,"$9,958"
180,259,High Point,North Carolina,114086,114059,0.00023666356958785477,56.4,146.1,2022.0,781.0,35°59′N 79°59′W﻿ / ﻿35.99°N 79.99°W,35.99,79.99,Catherine Truitt,1442736,93665,1:15.4,120,2475,87.0,"$9,958"
181,287,Concord,North Carolina,107697,105240,0.022814005961168834,63.5,164.5,1657.0,640.0,35°24′N 80°36′W﻿ / ﻿35.40°N 80.60°W,35.4,80.6,Catherine Truitt,1442736,93665,1:15.4,120,2475,87.0,"$9,958"
182,18,Seattle,Washington,733919,737015,-0.0042184491749089476,83.8,217.0,8795.0,3396.0,47°37′N 122°21′W﻿ / ﻿47.62°N 122.35°W,47.62,122.35,Chris Reykdal,1138272,62310,1:18.2,306,2474,81.0,"$14,556"
183,96,Spokane,Washington,229071,228989,0.0003579676170270353,68.8,178.2,3328.0,1285.0,47°40′N 117°26′W﻿ / ﻿47.66°N 117.43°W,47.66,117.43,Chris Reykdal,1138272,62310,1:18.2,306,2474,81.0,"$14,556"
184,103,Tacoma,Washington,219205,219346,-0.0006432335028854269,49.7,128.7,4413.0,1704.0,47°15′N 122°27′W﻿ / ﻿47.25°N 122.45°W,47.25,122.45,Chris Reykdal,1138272,62310,1:18.2,306,2474,81.0,"$14,556"
185,134,Vancouver,Washington,192169,190915,0.006525506195067883,48.7,126.1,3920.0,1510.0,45°38′N 122°35′W﻿ / ﻿45.63°N 122.59°W,45.63,122.59,Chris Reykdal,1138272,62310,1:18.2,306,2474,81.0,"$14,556"
186,178,Bellevue,Washington,149440,151854,-0.016153640256959315,33.5,86.8,4533.0,1750.0,47°35′N 122°09′W﻿ / ﻿47.59°N 122.15°W,47.59,122.15,Chris Reykdal,1138272,62310,1:18.2,306,2474,81.0,"$14,556"
187,211,Kent,Washington,134835,136588,-0.01300107538843772,33.8,87.5,4041.0,1560.0,47°23′N 122°13′W﻿ / ﻿47.38°N 122.21°W,47.38,122.21,Chris Reykdal,1138272,62310,1:18.2,306,2474,81.0,"$14,556"
188,278,Everett,Washington,110812,110629,0.0016514456918023319,33.2,86.0,3332.0,1286.0,47°57′N 122°11′W﻿ / ﻿47.95°N 122.19°W,47.95,122.19,Chris Reykdal,1138272,62310,1:18.2,306,2474,81.0,"$14,556"
189,300,Spokane Valley,Washington,105905,102976,0.027656862282234077,37.7,97.6,2731.0,1054.0,47°40′N 117°14′W﻿ / ﻿47.67°N 117.23°W,47.67,117.23,Chris Reykdal,1138272,62310,1:18.2,306,2474,81.0,"$14,556"
190,306,Renton,Washington,105179,106785,-0.0152692077315814,23.5,60.9,4544.0,1754.0,47°28′N 122°11′W﻿ / ﻿47.47°N 122.19°W,47.47,122.19,Chris Reykdal,1138272,62310,1:18.2,306,2474,81.0,"$14,556"
191,19,Denver,Colorado,711463,715522,-0.005705145594359791,153.1,396.5,4674.0,1805.0,39°46′N 104°53′W﻿ / ﻿39.76°N 104.88°W,39.76,104.88,Katy Anthes,891084,52611,1:16.9,178,1867,81.0,"$11,602"
192,40,Colorado Springs,Colorado,483956,478961,0.010321186223540984,195.4,506.1,2451.0,946.0,38°52′N 104°46′W﻿ / ﻿38.86°N 104.76°W,38.86,104.76,Katy Anthes,891084,52611,1:16.9,178,1867,81.0,"$11,602"
193,51,Aurora,Colorado,389347,386261,0.007926091635481974,160.1,414.7,2413.0,932.0,39°41′N 104°41′W﻿ / ﻿39.68°N 104.68°W,39.68,104.68,Katy Anthes,891084,52611,1:16.9,178,1867,81.0,"$11,602"
194,158,Fort Collins,Colorado,168538,169810,-0.007547259371773724,57.2,148.1,2969.0,1146.0,40°32′N 105°04′W﻿ / ﻿40.54°N 105.06°W,40.54,105.06,Katy Anthes,891084,52611,1:16.9,178,1867,81.0,"$11,602"
195,166,Lakewood,Colorado,156605,155984,0.003965390632482998,43.5,112.7,3586.0,1385.0,39°41′N 105°07′W﻿ / ﻿39.69°N 105.11°W,39.69,105.11,Katy Anthes,891084,52611,1:16.9,178,1867,81.0,"$11,602"
196,193,Thornton,Colorado,142610,141867,0.005210013323048874,35.9,93.0,3952.0,1526.0,39°55′N 104°56′W﻿ / ﻿39.91°N 104.94°W,39.91,104.94,Katy Anthes,891084,52611,1:16.9,178,1867,81.0,"$11,602"
197,231,Arvada,Colorado,123436,124402,-0.007825917884571761,38.9,100.8,3198.0,1235.0,39°50′N 105°09′W﻿ / ﻿39.83°N 105.15°W,39.83,105.15,Katy Anthes,891084,52611,1:16.9,178,1867,81.0,"$11,602"
198,258,Westminster,Colorado,114561,116317,-0.015328078490934961,31.6,81.8,3681.0,1421.0,39°53′N 105°04′W﻿ / ﻿39.88°N 105.06°W,39.88,105.06,Katy Anthes,891084,52611,1:16.9,178,1867,81.0,"$11,602"
199,272,Pueblo,Colorado,112368,111876,0.0043784707390004275,55.4,143.5,2019.0,780.0,38°16′N 104°37′W﻿ / ﻿38.26°N 104.61°W,38.26,104.61,Katy Anthes,891084,52611,1:16.9,178,1867,81.0,"$11,602"
200,284,Greeley,Colorado,109323,108795,0.004829724760571883,48.9,126.7,2225.0,859.0,40°25′N 104°46′W﻿ / ﻿40.41°N 104.76°W,40.41,104.76,Katy Anthes,891084,52611,1:16.9,178,1867,81.0,"$11,602"
201,293,Centennial,Colorado,106966,108418,-0.013574406820858965,29.7,76.9,3650.0,1410.0,39°35′N 104°52′W﻿ / ﻿39.59°N 104.86°W,39.59,104.86,Katy Anthes,891084,52611,1:16.9,178,1867,81.0,"$11,602"
202,309,Boulder,Colorado,104175,108250,-0.039116870650347975,26.3,68.1,4116.0,1589.0,40°01′N 105°15′W﻿ / ﻿40.02°N 105.25°W,40.02,105.25,Katy Anthes,891084,52611,1:16.9,178,1867,81.0,"$11,602"
203,329,Longmont,Colorado,100758,98885,0.018589094662458564,28.8,74.6,3434.0,1326.0,40°10′N 105°07′W﻿ / ﻿40.17°N 105.11°W,40.17,105.11,Katy Anthes,891084,52611,1:16.9,178,1867,81.0,"$11,602"
204,20,Oklahoma City,Oklahoma,687725,681054,0.009700098149696463,606.2,1570.1,1123.0,434.0,35°28′N 97°31′W﻿ / ﻿35.46°N 97.51°W,35.46,97.51,Joy Hofmeister,658323,41323,1:15.9,512,1720,85.0,"$9,508"
205,47,Tulsa,Oklahoma,411401,413066,-0.00404714621500677,197.5,511.5,2091.0,807.0,36°07′N 95°54′W﻿ / ﻿36.12°N 95.90°W,36.12,95.9,Joy Hofmeister,658323,41323,1:15.9,512,1720,85.0,"$9,508"
206,216,Norman,Oklahoma,128097,128026,0.0005542674691835094,178.8,463.1,716.0,276.0,35°14′N 97°20′W﻿ / ﻿35.24°N 97.34°W,35.24,97.34,Joy Hofmeister,658323,41323,1:15.9,512,1720,85.0,"$9,508"
207,251,Broken Arrow,Oklahoma,116330,113540,0.023983495229089657,63.0,163.2,1802.0,696.0,36°02′N 95°47′W﻿ / ﻿36.03°N 95.78°W,36.03,95.78,Joy Hofmeister,658323,41323,1:15.9,512,1720,85.0,"$9,508"
208,21,Nashville,Tennessee,678851,689447,-0.015608727099171982,475.8,1232.3,1449.0,559.0,36°10′N 86°47′W﻿ / ﻿36.17°N 86.78°W,36.17,86.78,Penny Schwinn,1001916,64105,1:15.6,141,1843,91.0,"$9,896"
209,29,Memphis,Tennessee,628127,633104,-0.007923556860316464,297.0,769.2,2132.0,823.0,35°06′N 89°58′W﻿ / ﻿35.10°N 89.97°W,35.1,89.97,Penny Schwinn,1001916,64105,1:15.6,141,1843,91.0,"$9,896"
210,132,Knoxville,Tennessee,192648,190740,0.009904073751090071,98.7,255.6,1933.0,746.0,35°58′N 83°56′W﻿ / ﻿35.97°N 83.94°W,35.97,83.94,Penny Schwinn,1001916,64105,1:15.6,141,1843,91.0,"$9,896"
211,142,Chattanooga,Tennessee,182113,181099,0.005567971534157364,142.4,368.8,1272.0,491.0,35°04′N 85°14′W﻿ / ﻿35.06°N 85.24°W,35.06,85.24,Penny Schwinn,1001916,64105,1:15.6,141,1843,91.0,"$9,896"
212,153,Clarksville,Tennessee,170957,166722,0.02477231116596571,99.4,257.4,1677.0,647.0,36°34′N 87°20′W﻿ / ﻿36.56°N 87.34°W,36.56,87.34,Penny Schwinn,1001916,64105,1:15.6,141,1843,91.0,"$9,896"
213,164,Murfreesboro,Tennessee,157519,152769,0.030155092401551557,62.9,162.9,2429.0,938.0,35°51′N 86°25′W﻿ / ﻿35.85°N 86.41°W,35.85,86.41,Penny Schwinn,1001916,64105,1:15.6,141,1843,91.0,"$9,896"
214,24,Boston,Massachusetts,654776,675647,-0.03187502290859775,48.3,125.1,13989.0,5401.0,42°20′N 71°01′W﻿ / ﻿42.33°N 71.02°W,42.33,71.02,Jim Peyser,896103,70653,1:12.6,316,1751,88.0,"$18,733"
215,114,Worcester,Massachusetts,205918,206518,-0.0029137812138812537,37.4,96.9,5522.0,2132.0,42°16′N 71°48′W﻿ / ﻿42.26°N 71.80°W,42.26,71.8,Jim Peyser,896103,70653,1:12.6,316,1751,88.0,"$18,733"
216,168,Springfield,Massachusetts,154789,155929,-0.007364864428350852,31.9,82.6,4888.0,1887.0,42°07′N 72°32′W﻿ / ﻿42.11°N 72.54°W,42.11,72.54,Jim Peyser,896103,70653,1:12.6,316,1751,88.0,"$18,733"
217,246,Cambridge,Massachusetts,117090,118403,-0.011213596378853873,6.4,16.6,18500.0,7100.0,42°22′N 71°07′W﻿ / ﻿42.37°N 71.11°W,42.37,71.11,Jim Peyser,896103,70653,1:12.6,316,1751,88.0,"$18,733"
218,261,Lowell,Massachusetts,113994,115554,-0.013684930785830832,13.6,35.2,8497.0,3281.0,42°38′N 71°19′W﻿ / ﻿42.63°N 71.32°W,42.63,71.32,Jim Peyser,896103,70653,1:12.6,316,1751,88.0,"$18,733"
219,302,Brockton,Massachusetts,105446,105643,-0.0018682548413405913,21.3,55.2,4960.0,1920.0,42°05′N 71°01′W﻿ / ﻿42.08°N 71.02°W,42.08,71.02,Jim Peyser,896103,70653,1:12.6,316,1751,88.0,"$18,733"
220,323,Quincy,Massachusetts,101119,101636,-0.005112787903361386,16.6,43.0,6123.0,2364.0,42°15′N 71°00′W﻿ / ﻿42.25°N 71.00°W,42.25,71.0,Jim Peyser,896103,70653,1:12.6,316,1751,88.0,"$18,733"
221,326,New Bedford,Massachusetts,100941,101079,-0.0013671352572294706,20.0,51.8,5054.0,1951.0,41°38′N 70°56′W﻿ / ﻿41.64°N 70.93°W,41.64,70.93,Jim Peyser,896103,70653,1:12.6,316,1751,88.0,"$18,733"
222,327,Lynn,Massachusetts,100843,101253,-0.004065725930406672,10.7,27.7,9463.0,3654.0,42°28′N 70°57′W﻿ / ﻿42.47°N 70.95°W,42.47,70.95,Jim Peyser,896103,70653,1:12.6,316,1751,88.0,"$18,733"
223,25,Las Vegas,Nevada,646790,641903,0.007555775444889377,141.8,367.3,4527.0,1748.0,36°13′N 115°16′W﻿ / ﻿36.22°N 115.26°W,36.22,115.26,Jhone Ebert,447603,23577,1:19,20,668,84.0,"$9,814"
224,57,Henderson,Nevada,322178,317610,0.0141784976007052,106.2,275.1,2991.0,1155.0,36°00′N 115°02′W﻿ / ﻿36.00°N 115.03°W,36.0,115.03,Jhone Ebert,447603,23577,1:19,20,668,84.0,"$9,814"
225,79,North Las Vegas,Nevada,274133,262527,0.04233711373676281,101.3,262.4,2592.0,1001.0,36°17′N 115°05′W﻿ / ﻿36.28°N 115.09°W,36.28,115.09,Jhone Ebert,447603,23577,1:19,20,668,84.0,"$9,814"
226,82,Reno,Nevada,268851,264165,0.017429728734503498,108.8,281.8,2428.0,937.0,39°32′N 119°50′W﻿ / ﻿39.54°N 119.84°W,39.54,119.84,Jhone Ebert,447603,23577,1:19,20,668,84.0,"$9,814"
227,281,Sparks,Nevada,109796,108445,0.012304637691719189,36.4,94.3,2979.0,1150.0,39°33′N 119°44′W﻿ / ﻿39.55°N 119.73°W,39.55,119.73,Jhone Ebert,447603,23577,1:19,20,668,84.0,"$9,814"
228,26,Portland,Oregon,641162,652503,-0.017688197366656166,133.5,345.8,4888.0,1887.0,45°32′N 122°39′W﻿ / ﻿45.53°N 122.65°W,45.53,122.65,Colt Gill,574799,29379,1:19.5,175,1224,80.0,"$12,855"
229,147,Salem,Oregon,177723,175535,0.012311293417284201,48.8,126.4,3597.0,1389.0,44°55′N 123°01′W﻿ / ﻿44.92°N 123.02°W,44.92,123.02,Colt Gill,574799,29379,1:19.5,175,1224,80.0,"$12,855"
230,151,Eugene,Oregon,175096,176654,-0.008897975967469274,44.2,114.5,3997.0,1543.0,44°03′N 123°07′W﻿ / ﻿44.05°N 123.11°W,44.05,123.11,Colt Gill,574799,29379,1:19.5,175,1224,80.0,"$12,855"
231,265,Gresham,Oregon,113103,114247,-0.010114674234989346,23.5,60.9,4862.0,1877.0,45°30′N 122°26′W﻿ / ﻿45.50°N 122.44°W,45.5,122.44,Colt Gill,574799,29379,1:19.5,175,1224,80.0,"$12,855"
232,297,Hillsboro,Oregon,106633,106447,0.0017443005448594712,25.7,66.6,4142.0,1599.0,45°31′N 122°56′W﻿ / ﻿45.52°N 122.93°W,45.52,122.93,Colt Gill,574799,29379,1:19.5,175,1224,80.0,"$12,855"
233,318,Bend,Oregon,102059,99178,0.028228769633251355,33.6,87.0,2952.0,1140.0,44°18′N 121°11′W﻿ / ﻿44.30°N 121.18°W,44.3,121.18,Colt Gill,574799,29379,1:19.5,175,1224,80.0,"$12,855"
234,27,Detroit,Michigan,632464,639111,-0.010509689089023248,138.7,359.2,4608.0,1779.0,42°23′N 83°06′W﻿ / ﻿42.38°N 83.10°W,42.38,83.1,Michael Rice,1300144,73231,1:18,539,2959,81.0,"$13,072"
235,125,Grand Rapids,Michigan,197416,198917,-0.007603233780443328,44.8,116.0,4440.0,1710.0,42°58′N 85°39′W﻿ / ﻿42.96°N 85.65°W,42.96,85.65,Michael Rice,1300144,73231,1:18,539,2959,81.0,"$13,072"
236,198,Warren,Michigan,138130,139387,-0.009100123072467966,34.4,89.1,4052.0,1564.0,42°29′N 83°01′W﻿ / ﻿42.49°N 83.02°W,42.49,83.02,Michael Rice,1300144,73231,1:18,539,2959,81.0,"$13,072"
237,212,Sterling Heights,Michigan,133269,134346,-0.00808139927515026,36.4,94.3,3691.0,1425.0,42°35′N 83°02′W﻿ / ﻿42.58°N 83.03°W,42.58,83.03,Michael Rice,1300144,73231,1:18,539,2959,81.0,"$13,072"
238,236,Ann Arbor,Michigan,121536,123851,-0.019047854133754608,28.2,73.0,4392.0,1696.0,42°16′N 83°44′W﻿ / ﻿42.27°N 83.73°W,42.27,83.73,Michael Rice,1300144,73231,1:18,539,2959,81.0,"$13,072"
239,269,Lansing,Michigan,112684,112644,0.0003549749742643144,39.1,101.3,2881.0,1112.0,42°43′N 84°33′W﻿ / ﻿42.71°N 84.55°W,42.71,84.55,Michael Rice,1300144,73231,1:18,539,2959,81.0,"$13,072"
240,286,Dearborn,Michigan,108420,109976,-0.014351595646559676,24.2,62.7,4544.0,1754.0,42°19′N 83°13′W﻿ / ﻿42.31°N 83.21°W,42.31,83.21,Michael Rice,1300144,73231,1:18,539,2959,81.0,"$13,072"
241,28,Louisville,Kentucky,628594,633045,-0.007080882095597476,324.9,841.5,1948.0,752.0,38°10′N 85°38′W﻿ / ﻿38.16°N 85.64°W,38.16,85.64,Jason Glass,691667,42212,1:16.3,171,1473,91.0,"$11,397"
242,59,Lexington,Kentucky,321793,322570,-0.002414595718365533,283.6,734.5,1137.0,439.0,38°02′N 84°27′W﻿ / ﻿38.04°N 84.45°W,38.04,84.45,Jason Glass,691667,42212,1:16.3,171,1473,91.0,"$11,397"
243,30,Baltimore,Maryland,576498,585708,-0.015975770948034512,80.9,209.5,7240.0,2800.0,39°18′N 76°37′W﻿ / ﻿39.30°N 76.61°W,39.3,76.61,Mohammed Choudhury,909003,61438,1:14.7,24,1420,87.0,"$15,489"
244,31,Milwaukee,Wisconsin,569330,577222,-0.013861907856603376,96.2,249.2,6000.0,2300.0,43°04′N 87°58′W﻿ / ﻿43.06°N 87.96°W,43.06,87.96,Jill Underly,846693,59263,1:14.2,423,2176,90.0,"$12,740"
245,81,Madison,Wisconsin,269196,269840,-0.0023923089496129214,79.6,206.2,3390.0,1310.0,43°05′N 89°25′W﻿ / ﻿43.08°N 89.42°W,43.08,89.42,Jill Underly,846693,59263,1:14.2,423,2176,90.0,"$12,740"
246,292,Green Bay,Wisconsin,107015,107395,-0.0035509040788674483,45.5,117.8,2360.0,910.0,44°31′N 87°59′W﻿ / ﻿44.52°N 87.98°W,44.52,87.98,Jill Underly,846693,59263,1:14.2,423,2176,90.0,"$12,740"
247,32,Albuquerque,New Mexico,562599,564559,-0.0034838312901373804,187.3,485.1,3014.0,1164.0,35°06′N 106°38′W﻿ / ﻿35.10°N 106.64°W,35.1,106.64,Kurt Steinhaus,322989,21681,1:14.8,129,854,75.0,"$11,332"
248,268,Las Cruces,New Mexico,112914,111385,0.01354127920364171,76.9,199.2,1448.0,559.0,32°19′N 106°47′W﻿ / ﻿32.32°N 106.78°W,32.32,106.78,Kurt Steinhaus,322989,21681,1:14.8,129,854,75.0,"$11,332"
249,301,Rio Rancho,New Mexico,105834,104046,0.016894381767673904,103.4,267.8,1006.0,388.0,35°17′N 106°40′W﻿ / ﻿35.29°N 106.67°W,35.29,106.67,Kurt Steinhaus,322989,21681,1:14.8,129,854,75.0,"$11,332"
250,37,Kansas City,Missouri,508394,508090,0.000597961423620263,314.7,815.1,1615.0,624.0,39°07′N 94°33′W﻿ / ﻿39.12°N 94.55°W,39.12,94.55,Margie Vandeven,884587,66645,1:13.2,518,2261,90.0,"$11,239"
251,70,St. Louis,Missouri,293310,301578,-0.028188605911833895,61.7,159.8,4888.0,1887.0,38°38′N 90°14′W﻿ / ﻿38.63°N 90.24°W,38.63,90.24,Margie Vandeven,884587,66645,1:13.2,518,2261,90.0,"$11,239"
252,156,Springfield,Missouri,169724,169176,0.0032287714171242723,82.4,213.4,2053.0,793.0,37°11′N 93°17′W﻿ / ﻿37.19°N 93.29°W,37.19,93.29,Margie Vandeven,884587,66645,1:13.2,518,2261,90.0,"$11,239"
253,219,Columbia,Missouri,126853,126254,0.0047220010563408035,66.5,172.2,1899.0,733.0,38°57′N 92°19′W﻿ / ﻿38.95°N 92.32°W,38.95,92.32,Margie Vandeven,884587,66645,1:13.2,518,2261,90.0,"$11,239"
254,234,Independence,Missouri,122088,123011,-0.0075601205687700675,78.0,202.0,1577.0,609.0,39°05′N 94°21′W﻿ / ﻿39.08°N 94.35°W,39.08,94.35,Margie Vandeven,884587,66645,1:13.2,518,2261,90.0,"$11,239"
255,314,Lee's Summit,Missouri,102781,101108,0.016277327521623645,63.9,165.5,1582.0,611.0,38°55′N 94°22′W﻿ / ﻿38.92°N 94.37°W,38.92,94.37,Margie Vandeven,884587,66645,1:13.2,518,2261,90.0,"$11,239"
256,38,Atlanta,Georgia,496461,498715,-0.004540135076068412,135.3,350.4,3686.0,1423.0,33°46′N 84°25′W﻿ / ﻿33.76°N 84.42°W,33.76,84.42,Richard Woods,1735585,115647,1:15,180,2238,82.0,"$11,707"
257,115,Columbus,Georgia,205617,206922,-0.006346751484556238,216.5,560.7,956.0,369.0,32°31′N 84°52′W﻿ / ﻿32.51°N 84.87°W,32.51,84.87,Richard Woods,1735585,115647,1:15,180,2238,82.0,"$11,707"
258,121,Augusta,Georgia,201196,202081,-0.004398695799121255,302.3,783.0,668.0,258.0,33°22′N 82°04′W﻿ / ﻿33.36°N 82.07°W,33.36,82.07,Richard Woods,1735585,115647,1:15,180,2238,82.0,"$11,707"
259,165,Macon,Georgia,156762,157346,-0.003725392633418813,249.4,645.9,631.0,244.0,32°48′N 83°41′W﻿ / ﻿32.80°N 83.69°W,32.8,83.69,Richard Woods,1735585,115647,1:15,180,2238,82.0,"$11,707"
260,187,Savannah,Georgia,147088,147780,-0.004704666594147721,106.8,276.6,1384.0,534.0,32°00′N 81°09′W﻿ / ﻿32.00°N 81.15°W,32.0,81.15,Richard Woods,1735585,115647,1:15,180,2238,82.0,"$11,707"
261,217,Athens,Georgia,127358,127315,0.0003376309301339531,116.3,301.2,1095.0,423.0,33°56′N 83°22′W﻿ / ﻿33.94°N 83.37°W,33.94,83.37,Richard Woods,1735585,115647,1:15,180,2238,82.0,"$11,707"
262,285,South Fulton,Georgia,108575,107436,0.010490444393276536,85.2,220.7,1261.0,487.0,33°35′N 84°40′W﻿ / ﻿33.59°N 84.67°W,33.59,84.67,Richard Woods,1735585,115647,1:15,180,2238,82.0,"$11,707"
263,290,Sandy Springs,Georgia,107180,108080,-0.008397089009143497,37.7,97.6,2867.0,1107.0,33°56′N 84°22′W﻿ / ﻿33.93°N 84.36°W,33.93,84.36,Richard Woods,1735585,115647,1:15,180,2238,82.0,"$11,707"
264,39,Omaha,Nebraska,487300,486051,0.002563102811409809,133.2,345.0,3433.0,1325.0,41°16′N 96°02′W﻿ / ﻿41.26°N 96.04°W,41.26,96.04,Matthew Blomstedt,328724,23751,1:13.8,244,1036,88.0,"$12,939"
265,71,Lincoln,Nebraska,292657,291082,0.005381726731292947,97.7,253.0,2979.0,1150.0,40°49′N 96°41′W﻿ / ﻿40.81°N 96.68°W,40.81,96.68,Matthew Blomstedt,328724,23751,1:13.8,244,1036,88.0,"$12,939"
266,42,Virginia Beach,Virginia,457672,459470,-0.0039285776713454176,244.7,633.8,1878.0,725.0,36°47′N 76°01′W﻿ / ﻿36.78°N 76.02°W,36.78,76.02,Jillian Balow,1296817,87166,1:14.8,132,2015,88.0,"$12,905"
267,89,Chesapeake,Virginia,251269,249422,0.007350687908178088,338.5,876.7,737.0,285.0,36°40′N 76°18′W﻿ / ﻿36.67°N 76.30°W,36.67,76.3,Jillian Balow,1296817,87166,1:14.8,132,2015,88.0,"$12,905"
268,95,Norfolk,Virginia,235089,238005,-0.012403813024003675,53.3,138.0,4465.0,1724.0,36°55′N 76°14′W﻿ / ﻿36.92°N 76.24°W,36.92,76.24,Jillian Balow,1296817,87166,1:14.8,132,2015,88.0,"$12,905"
269,98,Richmond,Virginia,226604,226610,-2.6477908598259518e-05,59.9,155.1,3783.0,1461.0,37°32′N 77°28′W﻿ / ﻿37.53°N 77.47°W,37.53,77.47,Jillian Balow,1296817,87166,1:14.8,132,2015,88.0,"$12,905"
270,139,Newport News,Virginia,184587,186247,-0.008993049348003922,69.0,178.7,2699.0,1042.0,37°04′N 76°31′W﻿ / ﻿37.07°N 76.52°W,37.07,76.52,Jillian Balow,1296817,87166,1:14.8,132,2015,88.0,"$12,905"
271,169,Alexandria,Virginia,154706,159467,-0.030774501312166302,14.9,38.6,10702.0,4132.0,38°49′N 77°05′W﻿ / ﻿38.82°N 77.08°W,38.82,77.08,Jillian Balow,1296817,87166,1:14.8,132,2015,88.0,"$12,905"
272,200,Hampton,Virginia,137746,137148,0.0043413238859930595,51.5,133.4,2663.0,1028.0,37°02′N 76°17′W﻿ / ﻿37.04°N 76.29°W,37.04,76.29,Jillian Balow,1296817,87166,1:14.8,132,2015,88.0,"$12,905"
273,46,Minneapolis,Minnesota,425336,429954,-0.010857298700321628,54.0,139.9,7962.0,3074.0,44°58′N 93°16′W﻿ / ﻿44.96°N 93.26°W,44.96,93.26,Heather Mueller,821260,48805,1:16.8,331,2014,84.0,"$13,603"
274,67,Saint Paul,Minnesota,307193,311527,-0.014108394397007744,52.0,134.7,5991.0,2313.0,44°56′N 93°06′W﻿ / ﻿44.94°N 93.10°W,44.94,93.1,Heather Mueller,821260,48805,1:16.8,331,2014,84.0,"$13,603"
275,237,Rochester,Minnesota,121465,121395,0.0005762976989256164,55.5,143.7,2187.0,844.0,44°01′N 92°28′W﻿ / ﻿44.01°N 92.47°W,44.01,92.47,Heather Mueller,821260,48805,1:16.8,331,2014,84.0,"$13,603"
276,49,Wichita,Kansas,395699,397532,-0.0046323089014629806,162.0,419.6,2454.0,947.0,37°41′N 97°20′W﻿ / ﻿37.69°N 97.34°W,37.69,97.34,Randy Watson,497753,36406,1:14,287,1305,87.0,"$9,828"
277,49,Wichita,Kansas,395699,397532,-0.0046323089014629806,162.0,419.6,2454.0,947.0,37°41′N 97°20′W﻿ / ﻿37.69°N 97.34°W,37.69,97.34,Randy Watson,497753,36406,1:14,287,1305,87.0,"$12,697"
278,127,Overland Park,Kansas,197106,197238,-0.0006696904203829412,75.2,194.8,2623.0,1013.0,38°53′N 94°41′W﻿ / ﻿38.88°N 94.69°W,38.88,94.69,Randy Watson,497753,36406,1:14,287,1305,87.0,"$9,828"
279,127,Overland Park,Kansas,197106,197238,-0.0006696904203829412,75.2,194.8,2623.0,1013.0,38°53′N 94°41′W﻿ / ﻿38.88°N 94.69°W,38.88,94.69,Randy Watson,497753,36406,1:14,287,1305,87.0,"$12,697"
280,170,Kansas City,Kansas,154545,156607,-0.013342392183506422,124.7,323.0,1256.0,485.0,39°07′N 94°44′W﻿ / ﻿39.12°N 94.74°W,39.12,94.74,Randy Watson,497753,36406,1:14,287,1305,87.0,"$9,828"
281,170,Kansas City,Kansas,154545,156607,-0.013342392183506422,124.7,323.0,1256.0,485.0,39°07′N 94°44′W﻿ / ﻿39.12°N 94.74°W,39.12,94.74,Randy Watson,497753,36406,1:14,287,1305,87.0,"$12,697"
282,191,Olathe,Kansas,143014,141290,0.01205476386927154,61.9,160.3,2283.0,881.0,38°53′N 94°49′W﻿ / ﻿38.88°N 94.81°W,38.88,94.81,Randy Watson,497753,36406,1:14,287,1305,87.0,"$9,828"
283,191,Olathe,Kansas,143014,141290,0.01205476386927154,61.9,160.3,2283.0,881.0,38°53′N 94°49′W﻿ / ﻿38.88°N 94.81°W,38.88,94.81,Randy Watson,497753,36406,1:14,287,1305,87.0,"$12,697"
284,223,Topeka,Kansas,125963,126587,-0.004953835650151235,61.4,159.0,2062.0,796.0,39°02′N 95°41′W﻿ / ﻿39.03°N 95.69°W,39.03,95.69,Randy Watson,497753,36406,1:14,287,1305,87.0,"$9,828"
285,223,Topeka,Kansas,125963,126587,-0.004953835650151235,61.4,159.0,2062.0,796.0,39°02′N 95°41′W﻿ / ﻿39.03°N 95.69°W,39.03,95.69,Randy Watson,497753,36406,1:14,287,1305,87.0,"$12,697"
286,53,New Orleans,Louisiana,376971,383997,-0.018638038469802717,169.5,439.0,2265.0,875.0,30°03′N 89°56′W﻿ / ﻿30.05°N 89.93°W,30.05,89.93,Cade Brumley,637434,34642,1:18.4,72,1214,80.0,"$11,843"
287,101,Baton Rouge,Louisiana,222185,227470,-0.02378648423610955,86.3,223.5,2636.0,1018.0,30°26′N 91°08′W﻿ / ﻿30.44°N 91.13°W,30.44,91.13,Cade Brumley,637434,34642,1:18.4,72,1214,80.0,"$11,843"
288,141,Shreveport,Louisiana,184021,187593,-0.019410828112008956,107.8,279.2,1740.0,670.0,32°28′N 93°47′W﻿ / ﻿32.46°N 93.79°W,32.46,93.79,Cade Brumley,637434,34642,1:18.4,72,1214,80.0,"$11,843"
289,235,Lafayette,Louisiana,121771,121374,0.003260217950086638,55.8,144.5,2175.0,840.0,30°12′N 92°01′W﻿ / ﻿30.20°N 92.02°W,30.2,92.02,Cade Brumley,637434,34642,1:18.4,72,1214,80.0,"$11,843"
290,56,Honolulu,Hawaii,345510,350964,-0.015785360771034124,60.5,156.7,5801.0,2240.0,21°19′N 157°50′W﻿ / ﻿21.32°N 157.84°W,21.32,157.84,Keith Hayashi,181088,12220,1:15,1,294,85.0,"$16,564"
291,66,Newark,New Jersey,307220,311549,-0.01409087950003255,24.1,62.4,12927.0,4991.0,40°43′N 74°10′W﻿ / ﻿40.72°N 74.17°W,40.72,74.17,Angelica Allen-McMillan,1321709,109282,1:12,546,2312,91.0,"$20,670"
292,75,Jersey City,New Jersey,283927,292449,-0.030014757314380105,14.7,38.1,19894.0,7681.0,40°43′N 74°04′W﻿ / ﻿40.71°N 74.06°W,40.71,74.06,Angelica Allen-McMillan,1321709,109282,1:12,546,2312,91.0,"$20,670"
293,163,Paterson,New Jersey,157794,159732,-0.012281835811247576,8.4,21.8,19016.0,7342.0,40°55′N 74°10′W﻿ / ﻿40.91°N 74.16°W,40.91,74.16,Angelica Allen-McMillan,1321709,109282,1:12,546,2312,91.0,"$20,670"
294,199,Lakewood,New Jersey,138070,135158,0.021090751068298687,24.7,64.0,5472.0,2113.0,40°05′N 74°13′W﻿ / ﻿40.08°N 74.21°W,40.08,74.21,Angelica Allen-McMillan,1321709,109282,1:12,546,2312,91.0,"$20,670"
295,208,Elizabeth,New Jersey,135407,137298,-0.013965304600205307,12.3,31.9,11162.0,4310.0,40°40′N 74°11′W﻿ / ﻿40.66°N 74.19°W,40.66,74.19,Angelica Allen-McMillan,1321709,109282,1:12,546,2312,91.0,"$20,670"
296,288,Edison,New Jersey,107626,107588,0.000353074535892814,30.1,78.0,3574.0,1380.0,40°31′N 74°25′W﻿ / ﻿40.52°N 74.41°W,40.52,74.41,Angelica Allen-McMillan,1321709,109282,1:12,546,2312,91.0,"$20,670"
297,311,Woodbridge,New Jersey,103212,103639,-0.004137115839243499,23.3,60.3,4448.0,1717.0,40°34′N 74°17′W﻿ / ﻿40.56°N 74.28°W,40.56,74.28,Angelica Allen-McMillan,1321709,109282,1:12,546,2312,91.0,"$20,670"
298,73,Anchorage,Alaska,288121,291247,-0.010849608324280424,1706.8,4420.6,171.0,66.0,61°10′N 149°17′W﻿ / ﻿61.17°N 149.28°W,61.17,149.28,Heidi Teshner,131587,7459,1:18,53,502,80.0,"$18,313"
299,94,Boise,Idaho,237446,235684,0.007420634586390169,84.0,217.6,2806.0,1083.0,43°36′N 116°14′W﻿ / ﻿43.60°N 116.23°W,43.6,116.23,Sherri Ybarra,289480,16147,1:18,117,705,81.0,"$8,272"
300,223,Meridian,Idaho,125963,117635,0.06611465271547995,35.1,90.9,3351.0,1294.0,43°37′N 116°23′W﻿ / ﻿43.61°N 116.39°W,43.61,116.39,Sherri Ybarra,289480,16147,1:18,117,705,81.0,"$8,272"
301,299,Nampa,Idaho,106186,100200,0.05637277983915017,33.5,86.8,2991.0,1155.0,43°34′N 116°34′W﻿ / ﻿43.57°N 116.56°W,43.57,116.56,Sherri Ybarra,289480,16147,1:18,117,705,81.0,"$8,272"
302,106,Huntsville,Alabama,216963,215006,0.009019971147154124,218.1,564.9,986.0,381.0,34°41′N 86°40′W﻿ / ﻿34.69°N 86.67°W,34.69,86.67,Eric Mackey,743012,41977,1:17,138,1479,92.0,"$10,116"
303,123,Montgomery,Alabama,198665,200603,-0.009755115395263383,159.9,414.1,1255.0,485.0,32°20′N 86°16′W﻿ / ﻿32.34°N 86.26°W,32.34,86.26,Eric Mackey,743012,41977,1:17,138,1479,92.0,"$10,116"
304,124,Birmingham,Alabama,197575,200733,-0.015983803618878908,147.0,380.7,1366.0,527.0,33°31′N 86°47′W﻿ / ﻿33.52°N 86.79°W,33.52,86.79,Eric Mackey,743012,41977,1:17,138,1479,92.0,"$10,116"
305,138,Mobile,Alabama,184952,187041,-0.011294822440416973,139.5,361.3,1341.0,518.0,30°40′N 88°06′W﻿ / ﻿30.66°N 88.10°W,30.66,88.1,Eric Mackey,743012,41977,1:17,138,1479,92.0,"$10,116"
306,330,Tuscaloosa,Alabama,100618,99600,0.010117474010614403,61.9,160.3,1609.0,621.0,33°13′N 87°32′W﻿ / ﻿33.21°N 87.53°W,33.21,87.53,Eric Mackey,743012,41977,1:17,138,1479,92.0,"$10,116"
307,107,Des Moines,Iowa,212031,214133,-0.009913644702897217,88.2,228.4,2428.0,937.0,41°34′N 93°37′W﻿ / ﻿41.57°N 93.61°W,41.57,93.61,Ann Lebo,517444,35535,1:14.5,328,1310,92.0,"$11,958"
308,204,Cedar Rapids,Iowa,136467,137710,-0.00910842914404215,72.1,186.7,1910.0,740.0,41°58′N 91°40′W﻿ / ﻿41.96°N 91.67°W,41.96,91.67,Ann Lebo,517444,35535,1:14.5,328,1310,92.0,"$11,958"
309,324,Davenport,Iowa,101009,101724,-0.007078577156491006,63.8,165.2,1594.0,615.0,41°33′N 90°36′W﻿ / ﻿41.55°N 90.60°W,41.55,90.6,Ann Lebo,517444,35535,1:14.5,328,1310,92.0,"$11,958"
310,118,Little Rock,Arkansas,201998,202591,-0.0029356726304220833,120.0,310.8,1688.0,652.0,34°43′N 92°21′W﻿ / ﻿34.72°N 92.35°W,34.72,92.35,Johnny Key,474826,36900,1:12.8,233,989,84.9,"$10,345"
311,122,Salt Lake City,Utah,200478,199723,0.003765999261764383,110.3,285.7,1811.0,699.0,40°46′N 111°56′W﻿ / ﻿40.77°N 111.93°W,40.77,111.93,Sydnee Dickson,606998,26168,1:23,42,945,87.0,"$8,366"
312,197,West Valley City,Utah,139110,140230,-0.008051182517432249,35.8,92.7,3917.0,1512.0,40°41′N 112°01′W﻿ / ﻿40.68°N 112.01°W,40.68,112.01,Sydnee Dickson,606998,26168,1:23,42,945,87.0,"$8,366"
313,248,West Jordan,Utah,116541,116961,-0.0036038818956418773,32.3,83.7,3621.0,1398.0,40°36′N 112°00′W﻿ / ﻿40.60°N 112.00°W,40.6,112.0,Sydnee Dickson,606998,26168,1:23,42,945,87.0,"$8,366"
314,260,Provo,Utah,114084,115162,-0.009449177798814908,41.7,108.0,2762.0,1066.0,40°14′N 111°38′W﻿ / ﻿40.24°N 111.64°W,40.24,111.64,Sydnee Dickson,606998,26168,1:23,42,945,87.0,"$8,366"
315,130,Sioux Falls,South Dakota,196528,192517,0.02040930554424815,79.1,204.9,2434.0,940.0,43°32′N 96°44′W﻿ / ﻿43.53°N 96.73°W,43.53,96.73,Tiffany Sanderson,145726,10699,1:13.6,169,714,84.0,"$10,208"
316,135,Providence,Rhode Island,189692,190934,-0.006547455875840837,18.4,47.7,10377.0,4007.0,41°49′N 71°25′W﻿ / ﻿41.82°N 71.41°W,41.82,71.41,Angélica Infante-Green,131835,9743,1:13.5,34,271,84.0,"$16,857"
317,174,Charleston,South Carolina,151612,150227,0.009135160805213307,114.8,297.3,1309.0,505.0,32°49′N 79°57′W﻿ / ﻿32.81°N 79.95°W,32.81,79.95,Molly Mitchell Spearman,751660,51158,1:14.6,79,1167,81.0,"$11,532"
318,202,Columbia,South Carolina,137541,136632,0.006608938425633084,136.8,354.3,999.0,386.0,34°01′N 80°53′W﻿ / ﻿34.02°N 80.89°W,34.02,80.89,Molly Mitchell Spearman,751660,51158,1:14.6,79,1167,81.0,"$11,532"
319,242,North Charleston,South Carolina,117472,114852,0.02230318714246799,77.6,201.0,1480.0,570.0,32°55′N 80°04′W﻿ / ﻿32.91°N 80.06°W,32.91,80.06,Molly Mitchell Spearman,751660,51158,1:14.6,79,1167,81.0,"$11,532"
320,177,Jackson,Mississippi,149761,153701,-0.02630858501211931,111.7,289.3,1376.0,531.0,32°19′N 90°13′W﻿ / ﻿32.31°N 90.21°W,32.31,90.21,Kim Benton,457954,31063,1:14.7,137,1013,85.0,"$9,653"
321,183,Bridgeport,Connecticut,148333,148654,-0.0021640498068534984,16.1,41.7,9233.0,3565.0,41°11′N 73°11′W﻿ / ﻿41.18°N 73.19°W,41.18,73.19,Charlene Russell-Tucker,486990,39049,1:12,169,935,89.0,"$21,346"
322,205,Stamford,Connecticut,136309,135470,0.006155132823217836,37.6,97.4,3603.0,1391.0,41°04′N 73°32′W﻿ / ﻿41.07°N 73.54°W,41.07,73.54,Charlene Russell-Tucker,486990,39049,1:12,169,935,89.0,"$21,346"
323,209,New Haven,Connecticut,135081,134023,0.007832337634456362,18.7,48.4,7167.0,2767.0,41°19′N 72°55′W﻿ / ﻿41.31°N 72.92°W,41.31,72.92,Charlene Russell-Tucker,486990,39049,1:12,169,935,89.0,"$21,346"
324,238,Hartford,Connecticut,120576,121054,-0.003964304670912951,17.4,45.1,6957.0,2686.0,41°46′N 72°41′W﻿ / ﻿41.76°N 72.68°W,41.76,72.68,Charlene Russell-Tucker,486990,39049,1:12,169,935,89.0,"$21,346"
325,263,Waterbury,Connecticut,113811,114403,-0.005201606171635431,28.5,73.8,4014.0,1550.0,41°33′N 73°02′W﻿ / ﻿41.55°N 73.03°W,41.55,73.03,Charlene Russell-Tucker,486990,39049,1:12,169,935,89.0,"$21,346"
326,220,Fargo,North Dakota,126748,125990,0.005980370498942784,49.8,129.0,2530.0,980.0,46°52′N 96°49′W﻿ / ﻿46.86°N 96.82°W,46.86,96.82,Kirsten Baesler,116639,9385,1:12.4,179,484,88.0,"$14,242"
327,243,Billings,Montana,117445,117116,0.0028013112520754394,44.8,116.0,2614.0,1009.0,45°47′N 108°32′W﻿ / ﻿45.78°N 108.54°W,45.78,108.54,Elsie Arntzen,108894,7866,1:13.8,302,684,87.0,"$12,101"
328,254,Manchester,New Hampshire,115462,115644,-0.001576276177443661,33.1,85.7,3494.0,1349.0,42°59′N 71°26′W﻿ / ﻿42.98°N 71.44°W,42.98,71.44,Frank Edelblut,168631,14009,1:12,162,456,88.0,"$17,900"
